[
  {
    "station_file": "ALAMEDA ICTA.csv",
    "station_name": "ALAMEDA ICTA",
    "station_id": "INS040101CV",
    "station_code": "INSDMCL0401001CONV",
    "lat": 14.637936,
    "lon": -90.803967,
    "altitud_m": 1750.0,
    "municipio": "Chimaltenango",
    "distance_km": 3.11,
    "records": 30,
    "min_date": "2025-06-14",
    "max_date": "2025-07-13"
  },
  {
    "station_file": "AMATITLAN.csv",
    "station_name": "AMATITLAN",
    "station_id": "INS011401AT",
    "station_code": "INSDMCL0114001CONV",
    "lat": 14.46785,
    "lon": -90.63039,
    "altitud_m": 1205.0,
    "municipio": "Villa Nueva",
    "distance_km": 8.13,
    "records": 1,
    "min_date": "2025-04-02",
    "max_date": "2025-04-02"
  },
  {
    "station_file": "AMATITLAN DOS.csv",
    "station_name": "AMATITLAN DOS",
    "station_id": "AMATITLAN_DOS",
    "station_code": null,
    "lat": null,
    "lon": null,
    "altitud_m": null,
    "municipio": null,
    "distance_km": null,
    "records": 30,
    "min_date": "2025-06-14",
    "max_date": "2025-07-13"
  },
  {
    "station_file": "ANTIGUA GUATEMALA.csv",
    "station_name": "ANTIGUA GUATEMALA",
    "station_id": "INS030101AT",
    "station_code": "INSDMCL0301001CONV",
    "lat": 14.53974,
    "lon": -90.7383,
    "altitud_m": 1539.0,
    "municipio": "Sacatepequez",
    "distance_km": 2.3,
    "records": 30,
    "min_date": "2025-06-14",
    "max_date": "2025-07-13"
  },
  {
    "station_file": "ASUNCION MITA.csv",
    "station_name": "ASUNCION MITA",
    "station_id": "INS220501CV",
    "station_code": "INSDMCL2205001CONV",
    "lat": 14.335447,
    "lon": -89.705892,
    "altitud_m": 478.0,
    "municipio": "Asuncion Mita",
    "distance_km": 1.19,
    "records": 30,
    "min_date": "2025-06-14",
    "max_date": "2025-07-13"
  },
  {
    "station_file": "Asunción Mita R.H..csv",
    "station_name": "Asunción Mita R.H.",
    "station_id": "INS220501CV",
    "station_code": "INSDMCL2205001CONV",
    "lat": 14.335447,
    "lon": -89.705892,
    "altitud_m": 478.0,
    "municipio": "Asuncion Mita",
    "distance_km": 1.19,
    "records": 30,
    "min_date": "2025-06-14",
    "max_date": "2025-07-13"
  },
  {
    "station_file": "CAMOTAN.csv",
    "station_name": "CAMOTAN",
    "station_id": "INS200501CV",
    "station_code": "INSDMCL2005001CONV",
    "lat": 14.821751,
    "lon": -89.374614,
    "altitud_m": 450.0,
    "municipio": "Jocotan",
    "distance_km": 2.79,
    "records": 30,
    "min_date": "2025-06-14",
    "max_date": "2025-07-13"
  },
  {
    "station_file": "CATARINA.csv",
    "station_name": "CATARINA",
    "station_id": "INS121601CV",
    "station_code": "INSDMCL1216001CONV",
    "lat": 14.856361,
    "lon": -92.074858,
    "altitud_m": 233.0,
    "municipio": "Malacatan",
    "distance_km": 4.93,
    "records": 30,
    "min_date": "2025-06-14",
    "max_date": "2025-07-13"
  },
  {
    "station_file": "CHAMPERICO FEGUA.csv",
    "station_name": "CHAMPERICO FEGUA",
    "station_id": "INS110701CV",
    "station_code": "INSDMCL1107001CONV",
    "lat": 14.29397,
    "lon": -91.91426,
    "altitud_m": 5.0,
    "municipio": "Champerico",
    "distance_km": 0.72,
    "records": 30,
    "min_date": "2025-06-14",
    "max_date": "2025-07-13"
  },
  {
    "station_file": "CHINIQUE.csv",
    "station_name": "CHINIQUE",
    "station_id": "INS140301CV",
    "station_code": "INSDMCL1403001CONV",
    "lat": 15.04675,
    "lon": -91.019608,
    "altitud_m": 1880.0,
    "municipio": "Santa Cruz del Quiche",
    "distance_km": 14.13,
    "records": 30,
    "min_date": "2025-06-14",
    "max_date": "2025-07-13"
  },
  {
    "station_file": "CHIXOY PCH.csv",
    "station_name": "CHIXOY PCH",
    "station_id": "INS141901CV",
    "station_code": "INSDMCL1419001CONV",
    "lat": 15.357893,
    "lon": -90.661261,
    "altitud_m": 680.0,
    "municipio": "Coban",
    "distance_km": 33.48,
    "records": 30,
    "min_date": "2025-06-14",
    "max_date": "2025-07-13"
  },
  {
    "station_file": "COBAN.csv",
    "station_name": "COBAN",
    "station_id": "INS160101CV",
    "station_code": "INSDMCL1601001CONV",
    "lat": 15.46992,
    "lon": -90.405518,
    "altitud_m": 1323.0,
    "municipio": "Coban",
    "distance_km": 3.58,
    "records": 30,
    "min_date": "2025-06-14",
    "max_date": "2025-07-13"
  },
  {
    "station_file": "CONCEPCION.csv",
    "station_name": "CONCEPCION",
    "station_id": "INS050101AT",
    "station_code": "INSDMCL0501002CONV",
    "lat": 14.32352,
    "lon": -90.78758,
    "altitud_m": 421.0,
    "municipio": "Escuintla",
    "distance_km": 2.16,
    "records": 30,
    "min_date": "2025-06-14",
    "max_date": "2025-07-13"
  },
  {
    "station_file": "CUBULCO.csv",
    "station_name": "CUBULCO",
    "station_id": "INS150401CV",
    "station_code": "INSDMCL1504001CONV",
    "lat": 15.109023,
    "lon": -90.620582,
    "altitud_m": 994.0,
    "municipio": "Rabinal",
    "distance_km": 15.01,
    "records": 30,
    "min_date": "2025-06-14",
    "max_date": "2025-07-13"
  },
  {
    "station_file": "EL CAPITAN.csv",
    "station_name": "EL CAPITAN",
    "station_id": "INS071301CV",
    "station_code": "INSDMCL0713001CONV",
    "lat": 14.644497,
    "lon": -91.140524,
    "altitud_m": 1562.0,
    "municipio": "Santiago Atitlan",
    "distance_km": 9.39,
    "records": 30,
    "min_date": "2025-06-14",
    "max_date": "2025-07-13"
  },
  {
    "station_file": "EL TABLON.csv",
    "station_name": "EL TABLON",
    "station_id": "INS070101CV",
    "station_code": "INSDMCL0401001CONV",
    "lat": 14.7902778,
    "lon": -91.1819444,
    "altitud_m": 2397.0,
    "municipio": "Solola",
    "distance_km": 1.62,
    "records": 30,
    "min_date": "2025-06-14",
    "max_date": "2025-07-13"
  },
  {
    "station_file": "ESQUIPULAS.csv",
    "station_name": "ESQUIPULAS",
    "station_id": "INS200701CV",
    "station_code": "INSDMCL2007001CONV",
    "lat": 14.559694,
    "lon": -89.341459,
    "altitud_m": 950.0,
    "municipio": "Esquipulas",
    "distance_km": 1.2,
    "records": 30,
    "min_date": "2025-06-14",
    "max_date": "2025-07-13"
  },
  {
    "station_file": "FLORES AEROPUERTO.csv",
    "station_name": "FLORES AEROPUERTO",
    "station_id": "INS170101CV",
    "station_code": "INSDMCL1701001CONV",
    "lat": 16.916093,
    "lon": -89.86686,
    "altitud_m": 123.0,
    "municipio": "Flores",
    "distance_km": 2.59,
    "records": 30,
    "min_date": "2025-06-14",
    "max_date": "2025-07-13"
  },
  {
    "station_file": "HUEHUETENANGO.csv",
    "station_name": "HUEHUETENANGO",
    "station_id": "INS130101CV",
    "station_code": "INSDMCL1301001CONV",
    "lat": 15.31828,
    "lon": -91.502403,
    "altitud_m": 1870.0,
    "municipio": "Huehuetenango",
    "distance_km": 3.35,
    "records": 30,
    "min_date": "2025-06-14",
    "max_date": "2025-07-13"
  },
  {
    "station_file": "INSIVUMEH.csv",
    "station_name": "INSIVUMEH",
    "station_id": "INS010101CV",
    "station_code": "INSDMCL0101001CONV",
    "lat": 14.587267,
    "lon": -90.532679,
    "altitud_m": 1502.0,
    "municipio": "Guatemala",
    "distance_km": 5.98,
    "records": 30,
    "min_date": "2025-06-14",
    "max_date": "2025-07-13"
  },
  {
    "station_file": "IXCHIGUAN.csv",
    "station_name": "IXCHIGUAN",
    "station_id": "INS122301AT",
    "station_code": "INSDMCL1223001CONV",
    "lat": 15.16483,
    "lon": -91.9395,
    "altitud_m": 3336.0,
    "municipio": "San Marcos",
    "distance_km": 27.19,
    "records": 30,
    "min_date": "2025-06-14",
    "max_date": "2025-07-13"
  },
  {
    "station_file": "LA AURORA.csv",
    "station_name": "LA AURORA",
    "station_id": "INS010102CV",
    "station_code": "INSDMCL0101002CONV",
    "lat": 14.58619,
    "lon": -90.52773,
    "altitud_m": 1491.0,
    "municipio": "Guatemala",
    "distance_km": 5.86,
    "records": 30,
    "min_date": "2025-06-14",
    "max_date": "2025-07-13"
  },
  {
    "station_file": "LA FRAGUA.csv",
    "station_name": "LA FRAGUA",
    "station_id": "INS190201CV",
    "station_code": "INSDMCL1902001CONV",
    "lat": 14.96553,
    "lon": -89.58437,
    "altitud_m": 227.0,
    "municipio": "Zacapa",
    "distance_km": 6.06,
    "records": 30,
    "min_date": "2025-06-14",
    "max_date": "2025-07-13"
  },
  {
    "station_file": "LA REFORMA.csv",
    "station_name": "LA REFORMA",
    "station_id": "INS122101AT",
    "station_code": "INSDMCL1221001CONV",
    "lat": 14.8,
    "lon": -91.8167,
    "altitud_m": 1133.0,
    "municipio": "Coatepeque",
    "distance_km": 12.69,
    "records": 30,
    "min_date": "2025-06-14",
    "max_date": "2025-07-13"
  },
  {
    "station_file": "LA UNION.csv",
    "station_name": "LA UNION",
    "station_id": "INS190901CV",
    "station_code": "INSDMCL1909001CONV",
    "lat": 14.9633333,
    "lon": -89.2911111,
    "altitud_m": 1000.0,
    "municipio": "Gualan",
    "distance_km": 18.89,
    "records": 30,
    "min_date": "2025-06-14",
    "max_date": "2025-07-13"
  },
  {
    "station_file": "LABOR OVALLE.csv",
    "station_name": "LABOR OVALLE",
    "station_id": "INS090301CV",
    "station_code": "INSDMCL0903001CONV",
    "lat": 14.871334,
    "lon": -91.514438,
    "altitud_m": 2380.0,
    "municipio": "Quetzaltenango",
    "distance_km": 3.1,
    "records": 30,
    "min_date": "2025-06-14",
    "max_date": "2025-07-13"
  },
  {
    "station_file": "LAS NUBES.csv",
    "station_name": "LAS NUBES",
    "station_id": "INS010302AT",
    "station_code": "INSDMCL0103002CONV",
    "lat": 14.552341,
    "lon": -90.316831,
    "altitud_m": null,
    "municipio": "San Jose Pinula",
    "distance_km": 10.75,
    "records": 29,
    "min_date": "2025-06-14",
    "max_date": "2025-07-12"
  },
  {
    "station_file": "LAS VEGAS PHC.csv",
    "station_name": "LAS VEGAS PHC",
    "station_id": "INS180201CV",
    "station_code": "INSDMCL1802001CONV",
    "lat": 15.585416,
    "lon": -88.944686,
    "altitud_m": 10.0,
    "municipio": "Morales",
    "distance_km": 19.03,
    "records": 30,
    "min_date": "2025-06-14",
    "max_date": "2025-07-13"
  },
  {
    "station_file": "LO DE COY.csv",
    "station_name": "LO DE COY",
    "station_id": "INS010801AT",
    "station_code": "INSDMCL0108001CONV",
    "lat": 14.62109,
    "lon": -90.59922,
    "altitud_m": 1686.0,
    "municipio": "Mixco",
    "distance_km": 1.36,
    "records": 30,
    "min_date": "2025-06-14",
    "max_date": "2025-07-13"
  },
  {
    "station_file": "LOS ALBORES.csv",
    "station_name": "LOS ALBORES",
    "station_id": "INS020301CV",
    "station_code": "INSDMCL0203001CONV",
    "lat": 15.0525,
    "lon": -89.949167,
    "altitud_m": 1391.0,
    "municipio": "San Agustin Acasaguastlan",
    "distance_km": 12.46,
    "records": 30,
    "min_date": "2025-06-14",
    "max_date": "2025-07-13"
  },
  {
    "station_file": "LOS ALTOS.csv",
    "station_name": "LOS ALTOS",
    "station_id": "INS090101CV",
    "station_code": "INSDMCL0901001CONV",
    "lat": 14.8599015,
    "lon": -91.50807279,
    "altitud_m": 2389.0,
    "municipio": "Quetzaltenango",
    "distance_km": 2.09,
    "records": 30,
    "min_date": "2025-06-14",
    "max_date": "2025-07-13"
  },
  {
    "station_file": "LOS ESCLAVOS.csv",
    "station_name": "LOS ESCLAVOS",
    "station_id": "INS060101CV",
    "station_code": "INSDMCL0601001CONV",
    "lat": 14.2528,
    "lon": -90.2783,
    "altitud_m": 737.0,
    "municipio": "Cuilapa",
    "distance_km": 3.55,
    "records": 30,
    "min_date": "2025-06-14",
    "max_date": "2025-07-13"
  },
  {
    "station_file": "MARISCOS.csv",
    "station_name": "MARISCOS",
    "station_id": "INS180501AT",
    "station_code": "INSDMCL1805001CONV",
    "lat": 15.42866,
    "lon": -89.07781,
    "altitud_m": 16.0,
    "municipio": "Morales",
    "distance_km": 28.3,
    "records": 30,
    "min_date": "2025-06-14",
    "max_date": "2025-07-13"
  },
  {
    "station_file": "MAZATENANGO.csv",
    "station_name": "MAZATENANGO",
    "station_id": "INS100101CV",
    "station_code": "INSDMCL1001001CONV",
    "lat": 14.5283333,
    "lon": -91.5027778,
    "altitud_m": 352.0,
    "municipio": "Mazatenango",
    "distance_km": 0.49,
    "records": 30,
    "min_date": "2025-06-14",
    "max_date": "2025-07-13"
  },
  {
    "station_file": "MONTUFAR.csv",
    "station_name": "MONTUFAR",
    "station_id": "INS221401CV",
    "station_code": "INSDMCL2214001CONV",
    "lat": 13.80853,
    "lon": -90.15446,
    "altitud_m": 29.0,
    "municipio": "Taxisco",
    "distance_km": 44.27,
    "records": 30,
    "min_date": "2025-06-14",
    "max_date": "2025-07-13"
  },
  {
    "station_file": "MORALES MET.csv",
    "station_name": "MORALES MET",
    "station_id": "INS180401AT",
    "station_code": "INSDMCL1804001CONV",
    "lat": 15.478211,
    "lon": -88.823711,
    "altitud_m": 123.0,
    "municipio": "Morales",
    "distance_km": 1.48,
    "records": 30,
    "min_date": "2025-06-14",
    "max_date": "2025-07-13"
  },
  {
    "station_file": "NEBAJ.csv",
    "station_name": "NEBAJ",
    "station_id": "INS141301CV",
    "station_code": "INSDMCL1413001CONV",
    "lat": 15.399247,
    "lon": -91.142084,
    "altitud_m": 1906.0,
    "municipio": "Huehuetenango",
    "distance_km": 36.39,
    "records": 30,
    "min_date": "2025-06-14",
    "max_date": "2025-07-13"
  },
  {
    "station_file": "NENTON.csv",
    "station_name": "NENTON",
    "station_id": "INS130501AT",
    "station_code": "INSDMCL1305001CONV",
    "lat": 15.80267,
    "lon": -91.75319,
    "altitud_m": null,
    "municipio": "Nenton",
    "distance_km": 1.48,
    "records": 29,
    "min_date": "2025-06-14",
    "max_date": "2025-07-12"
  },
  {
    "station_file": "NUEVA CONCEPCION.csv",
    "station_name": "NUEVA CONCEPCION",
    "station_id": "INS090901AT",
    "station_code": "INSDMCL0909001CONV",
    "lat": 14.867508,
    "lon": -91.682996,
    "altitud_m": 2877.0,
    "municipio": "San Juan Ostuncalco",
    "distance_km": 7.13,
    "records": 29,
    "min_date": "2025-06-14",
    "max_date": "2025-07-12"
  },
  {
    "station_file": "PACHUTE.csv",
    "station_name": "PACHUTE",
    "station_id": "INS090401AT",
    "station_code": "INSDMCL0904001CONV",
    "lat": 14.98341,
    "lon": -91.57365,
    "altitud_m": 2682.0,
    "municipio": "San Juan Ostuncalco",
    "distance_km": 13.78,
    "records": 29,
    "min_date": "2025-06-14",
    "max_date": "2025-07-12"
  },
  {
    "station_file": "PANZOS PHC ALTA VERAPAZ.csv",
    "station_name": "PANZOS PHC ALTA VERAPAZ",
    "station_id": "INS160701CV",
    "station_code": "INSDMCL1607001CONV",
    "lat": 15.3974,
    "lon": -89.64397,
    "altitud_m": 33.0,
    "municipio": "Cahabon",
    "distance_km": 29.16,
    "records": 30,
    "min_date": "2025-06-14",
    "max_date": "2025-07-13"
  },
  {
    "station_file": "Panzos PHC Altaverapaz.csv",
    "station_name": "Panzos PHC Altaverapaz",
    "station_id": "INS160701CV",
    "station_code": "INSDMCL1607001CONV",
    "lat": 15.3974,
    "lon": -89.64397,
    "altitud_m": 33.0,
    "municipio": "Cahabon",
    "distance_km": 29.16,
    "records": 30,
    "min_date": "2025-06-14",
    "max_date": "2025-07-13"
  },
  {
    "station_file": "PASABIEN.csv",
    "station_name": "PASABIEN",
    "station_id": "INS190301CV",
    "station_code": "INSDMCL1903001CONV",
    "lat": 15.030222,
    "lon": -89.67925,
    "altitud_m": 260.0,
    "municipio": "Zacapa",
    "distance_km": 17.46,
    "records": 30,
    "min_date": "2025-06-14",
    "max_date": "2025-07-13"
  },
  {
    "station_file": "PLAYA GRANDE IXCAN.csv",
    "station_name": "PLAYA GRANDE IXCAN",
    "station_id": "INS142201AT",
    "station_code": "INSDMCL1422001CONV",
    "lat": 15.98888,
    "lon": -90.74017,
    "altitud_m": 186.0,
    "municipio": "Ixcan",
    "distance_km": 17.33,
    "records": 30,
    "min_date": "2025-06-14",
    "max_date": "2025-07-13"
  },
  {
    "station_file": "Playa Grande Met (Ixcan).csv",
    "station_name": "Playa Grande Met (Ixcan)",
    "station_id": "INS142201AT",
    "station_code": "INSDMCL1422001CONV",
    "lat": 15.98888,
    "lon": -90.74017,
    "altitud_m": 186.0,
    "municipio": "Ixcan",
    "distance_km": 17.33,
    "records": 30,
    "min_date": "2025-06-14",
    "max_date": "2025-07-13"
  },
  {
    "station_file": "POPTUN.csv",
    "station_name": "POPTUN",
    "station_id": "INS171201CV",
    "station_code": "INSDMCL1712001CONV",
    "lat": 16.32566,
    "lon": -89.41043,
    "altitud_m": 479.0,
    "municipio": "Poptun",
    "distance_km": 1.2,
    "records": 30,
    "min_date": "2025-06-14",
    "max_date": "2025-07-13"
  },
  {
    "station_file": "POTRERO CARRILLO.csv",
    "station_name": "POTRERO CARRILLO",
    "station_id": "INS210101CV",
    "station_code": "INSDMCL2101001CONV",
    "lat": 14.74996,
    "lon": -89.933667,
    "altitud_m": 1760.0,
    "municipio": "Jalapa",
    "distance_km": 14.03,
    "records": 30,
    "min_date": "2025-06-14",
    "max_date": "2025-07-13"
  },
  {
    "station_file": "PUERTO BARRIOS PHC.csv",
    "station_name": "PUERTO BARRIOS PHC",
    "station_id": "INS180101CV",
    "station_code": "INSDMCL1801001CONV",
    "lat": 15.730161,
    "lon": -88.584395,
    "altitud_m": 2.0,
    "municipio": "Puerto Barrios",
    "distance_km": 2.24,
    "records": 30,
    "min_date": "2025-06-14",
    "max_date": "2025-07-13"
  },
  {
    "station_file": "QUEZADA.csv",
    "station_name": "QUEZADA",
    "station_id": "INS221701CV",
    "station_code": "INSDMCL2217001CONV",
    "lat": 14.232852,
    "lon": -90.036177,
    "altitud_m": 980.0,
    "municipio": "Jutiapa",
    "distance_km": 16.45,
    "records": 30,
    "min_date": "2025-06-14",
    "max_date": "2025-07-13"
  },
  {
    "station_file": "RETALHULEU AEROPUERTO.csv",
    "station_name": "RETALHULEU AEROPUERTO",
    "station_id": "INS110101CV",
    "station_code": "INSDMCL1101001CONV",
    "lat": 14.52486,
    "lon": -91.69407,
    "altitud_m": 205.0,
    "municipio": "Retalhuleu",
    "distance_km": 1.77,
    "records": 30,
    "min_date": "2025-06-14",
    "max_date": "2025-07-13"
  },
  {
    "station_file": "SABANA GRANDE.csv",
    "station_name": "SABANA GRANDE",
    "station_id": "INS050101CV",
    "station_code": "INSDMCL0501001CONV",
    "lat": 14.373773,
    "lon": -90.830533,
    "altitud_m": 730.0,
    "municipio": "Escuintla",
    "distance_km": 9.11,
    "records": 30,
    "min_date": "2025-06-14",
    "max_date": "2025-07-13"
  },
  {
    "station_file": "SACAPULAS.csv",
    "station_name": "SACAPULAS",
    "station_id": "INS141601CV",
    "station_code": "INSDMCL1416001CONV",
    "lat": 15.290621,
    "lon": -91.091976,
    "altitud_m": 1180.0,
    "municipio": "Santa Cruz del Quiche",
    "distance_km": 29.71,
    "records": 30,
    "min_date": "2025-06-14",
    "max_date": "2025-07-13"
  },
  {
    "station_file": "SAN AGUSTIN ACASAGUASTLAN.csv",
    "station_name": "SAN AGUSTIN ACASAGUASTLAN",
    "station_id": "INS020302CV",
    "station_code": "INSDMCL0203002CONV",
    "lat": 14.9502817,
    "lon": -89.9738746,
    "altitud_m": 371.0,
    "municipio": "San Agustin Acasaguastlan",
    "distance_km": 1.23,
    "records": 30,
    "min_date": "2025-06-14",
    "max_date": "2025-07-13"
  },
  {
    "station_file": "SAN JERONIMO R H.csv",
    "station_name": "SAN JERONIMO R H",
    "station_id": "INS150701CV",
    "station_code": "INSDMCL1507001CONV",
    "lat": 15.060903,
    "lon": -90.252213,
    "altitud_m": 1000.0,
    "municipio": "Salama",
    "distance_km": 8.18,
    "records": 30,
    "min_date": "2025-06-14",
    "max_date": "2025-07-13"
  },
  {
    "station_file": "SAN JOSE AEROPUERTO.csv",
    "station_name": "SAN JOSE AEROPUERTO",
    "station_id": "INS050901CV",
    "station_code": "INSDMCL0509001CONV",
    "lat": 13.936665,
    "lon": -90.835264,
    "altitud_m": 6.0,
    "municipio": "Escuintla",
    "distance_km": 41.21,
    "records": 30,
    "min_date": "2025-06-14",
    "max_date": "2025-07-13"
  },
  {
    "station_file": "SAN JOSE AREOPUERTO.csv",
    "station_name": "SAN JOSE AREOPUERTO",
    "station_id": "INS050901CV",
    "station_code": "INSDMCL0509001CONV",
    "lat": 13.936665,
    "lon": -90.835264,
    "altitud_m": 6.0,
    "municipio": "Escuintla",
    "distance_km": 41.21,
    "records": 30,
    "min_date": "2025-01-21",
    "max_date": "2025-02-19"
  },
  {
    "station_file": "SAN JOSE PINULA.csv",
    "station_name": "SAN JOSE PINULA",
    "station_id": "INS010301AT",
    "station_code": "INSDMCL0103001CONV",
    "lat": 14.52392,
    "lon": -90.39191,
    "altitud_m": 1744.0,
    "municipio": "San Jose Pinula",
    "distance_km": 3.94,
    "records": 30,
    "min_date": "2025-06-14",
    "max_date": "2025-07-13"
  },
  {
    "station_file": "SAN MARCOS PHC.csv",
    "station_name": "SAN MARCOS PHC",
    "station_id": "INS120101CV",
    "station_code": "INSDMCL1201001CONV",
    "lat": 14.96715,
    "lon": -91.82333,
    "altitud_m": 2420.0,
    "municipio": "San Marcos",
    "distance_km": 3.03,
    "records": 30,
    "min_date": "2025-06-14",
    "max_date": "2025-07-13"
  },
  {
    "station_file": "SAN MARTIN JILOTEPEQUE.csv",
    "station_name": "SAN MARTIN JILOTEPEQUE",
    "station_id": "INS040301CV",
    "station_code": "INSDMCL0403001CONV",
    "lat": 14.777474,
    "lon": -90.792558,
    "altitud_m": 1800.0,
    "municipio": "Chimaltenango",
    "distance_km": 13.23,
    "records": 30,
    "min_date": "2025-06-14",
    "max_date": "2025-07-13"
  },
  {
    "station_file": "SAN PEDRO AYAMPUC.csv",
    "station_name": "SAN PEDRO AYAMPUC",
    "station_id": "INS010701AT",
    "station_code": "INSDMCL0107001CONV",
    "lat": 14.7834166,
    "lon": -90.4500096,
    "altitud_m": 1269.0,
    "municipio": "Guatemala",
    "distance_km": 17.61,
    "records": 30,
    "min_date": "2025-06-14",
    "max_date": "2025-07-13"
  },
  {
    "station_file": "SAN PEDRO NECTA.csv",
    "station_name": "SAN PEDRO NECTA",
    "station_id": "INS130601CV",
    "station_code": "INSDMCL1306001CONV",
    "lat": 15.49459,
    "lon": -91.76244,
    "altitud_m": 1641.0,
    "municipio": "Jacaltenango",
    "distance_km": 17.96,
    "records": 30,
    "min_date": "2025-06-14",
    "max_date": "2025-07-13"
  },
  {
    "station_file": "SANTA CRUZ BALANYA.csv",
    "station_name": "SANTA CRUZ BALANYA",
    "station_id": "INS041001CV",
    "station_code": "INSDMCL0410001CONV",
    "lat": 14.683227,
    "lon": -90.918504,
    "altitud_m": 2080.0,
    "municipio": "Patzun",
    "distance_km": 9.97,
    "records": 30,
    "min_date": "2025-06-14",
    "max_date": "2025-07-13"
  },
  {
    "station_file": "SANTA CRUZ DEL QUICHE.csv",
    "station_name": "SANTA CRUZ DEL QUICHE",
    "station_id": "INS140101AT",
    "station_code": "INSDMCL1401001CONV",
    "lat": 15.05016,
    "lon": -91.15395,
    "altitud_m": 2082.0,
    "municipio": "Santa Cruz del Quiche",
    "distance_km": 2.35,
    "records": 30,
    "min_date": "2025-06-14",
    "max_date": "2025-07-13"
  },
  {
    "station_file": "Santa Cruz Quiché.csv",
    "station_name": "Santa Cruz Quiché",
    "station_id": "INS140101AT",
    "station_code": "INSDMCL1401001CONV",
    "lat": 15.05016,
    "lon": -91.15395,
    "altitud_m": 2082.0,
    "municipio": "Santa Cruz del Quiche",
    "distance_km": 2.35,
    "records": 30,
    "min_date": "2025-01-22",
    "max_date": "2025-02-20"
  },
  {
    "station_file": "SANTA MARGARITA.csv",
    "station_name": "SANTA MARGARITA",
    "station_id": "INS040801AT",
    "station_code": "INSDMCL0408001CONV",
    "lat": 14.50575,
    "lon": -91.01144,
    "altitud_m": 1137.0,
    "municipio": "Santa Lucia Cotzumalguapa",
    "distance_km": 19.18,
    "records": 30,
    "min_date": "2025-06-14",
    "max_date": "2025-07-13"
  },
  {
    "station_file": "SANTA MARIA CAHABON.csv",
    "station_name": "SANTA MARIA CAHABON",
    "station_id": "INS161201CV",
    "station_code": "INSDMCL1612001CONV",
    "lat": 15.608429,
    "lon": -89.81227,
    "altitud_m": 380.0,
    "municipio": "Cahabon",
    "distance_km": 1.05,
    "records": 30,
    "min_date": "2025-06-14",
    "max_date": "2025-07-13"
  },
  {
    "station_file": "SANTIAGO ATITLAN.csv",
    "station_name": "SANTIAGO ATITLAN",
    "station_id": "INS071901CV",
    "station_code": "INSDMCL0719001CONV",
    "lat": 14.630858,
    "lon": -91.232526,
    "altitud_m": 1569.0,
    "municipio": "Santiago Atitlan",
    "distance_km": 1.33,
    "records": 30,
    "min_date": "2025-06-14",
    "max_date": "2025-07-13"
  },
  {
    "station_file": "SUIZA CONTENTA.csv",
    "station_name": "SUIZA CONTENTA",
    "station_id": "INS030801CV",
    "station_code": "INSDMCL0308001CONV",
    "lat": 14.618572,
    "lon": -90.659128,
    "altitud_m": 2105.0,
    "municipio": "San Lucas Sacatepequez",
    "distance_km": 1.14,
    "records": 30,
    "min_date": "2025-06-14",
    "max_date": "2025-07-13"
  },
  {
    "station_file": "TECUN UMAN.csv",
    "station_name": "TECUN UMAN",
    "station_id": "INS121701CV",
    "station_code": "INSDMCL1217001CONV",
    "lat": 14.70195,
    "lon": -92.128059,
    "altitud_m": 29.0,
    "municipio": "Ayutla",
    "distance_km": 4.64,
    "records": 30,
    "min_date": "2025-06-14",
    "max_date": "2025-07-13"
  },
  {
    "station_file": "Tecún Umán Fegua Ayutla.csv",
    "station_name": "Tecún Umán Fegua Ayutla",
    "station_id": "INS121701CV",
    "station_code": "INSDMCL1217001CONV",
    "lat": 14.70195,
    "lon": -92.128059,
    "altitud_m": 29.0,
    "municipio": "Ayutla",
    "distance_km": 4.64,
    "records": 30,
    "min_date": "2025-06-14",
    "max_date": "2025-07-13"
  },
  {
    "station_file": "TODOS SANTOS.csv",
    "station_name": "TODOS SANTOS",
    "station_id": "INS131501CV",
    "station_code": "INSDMCL1315001CONV",
    "lat": 15.5080222,
    "lon": -91.6003111,
    "altitud_m": 2480.0,
    "municipio": "Jacaltenango",
    "distance_km": 20.12,
    "records": 30,
    "min_date": "2025-06-14",
    "max_date": "2025-07-13"
  },
  {
    "station_file": "TOTONICAPAN.csv",
    "station_name": "TOTONICAPAN",
    "station_id": "INS080101AT",
    "station_code": "INSDMCL0801001CONV",
    "lat": 14.91082,
    "lon": -91.36441,
    "altitud_m": 2478.0,
    "municipio": "Totonicapan",
    "distance_km": 0.37,
    "records": 30,
    "min_date": "2025-06-14",
    "max_date": "2025-07-13"
  }
]